City_ID,City,Country,Lat,Lng,Max Temp,Humidity,Cloudiness,Wind Speed,Current Description,Date
0,Bubaque,GW,11.28,-15.83,78.49,72,0,14.23,clear sky,2020-12-29 01:00:25
1,Turbat,PK,26.0,63.04,54.16,32,0,13.33,clear sky,2020-12-29 01:00:25
2,Rikitea,PF,-23.12,-134.97,78.62,78,100,16.58,moderate rain,2020-12-29 00:56:34
3,Mataura,NZ,-46.19,168.86,76.32,40,45,3.76,scattered clouds,2020-12-29 00:56:34
4,Hilo,US,19.73,-155.09,82.4,58,20,9.17,few clouds,2020-12-29 01:00:09
5,Te Anau,NZ,-45.42,167.72,70.41,35,100,3.6,overcast clouds,2020-12-29 01:00:26
6,Vaini,TO,-21.2,-175.2,84.2,74,75,4.7,moderate rain,2020-12-29 01:00:26
7,Jacmel,HT,18.23,-72.53,77.0,88,75,4.97,light rain,2020-12-29 01:00:27
8,Trinidad,BO,-14.83,-64.9,73.49,96,100,3.15,overcast clouds,2020-12-29 01:00:27
9,Jamestown,US,42.1,-79.24,30.0,86,90,8.39,light snow,2020-12-29 01:00:28
10,Cidreira,BR,-30.18,-50.21,73.29,82,57,15.3,broken clouds,2020-12-29 01:00:28
11,Tiksi,RU,71.69,128.87,2.19,94,100,4.12,light snow,2020-12-29 01:00:28
12,Severo-Kurilsk,RU,50.68,156.12,22.1,95,100,40.15,snow,2020-12-29 01:00:28
13,Kodiak,US,57.79,-152.41,37.4,88,20,5.82,few clouds,2020-12-29 01:00:29
14,Saint-Philippe,RE,-21.36,55.77,77.0,69,0,19.46,clear sky,2020-12-29 01:00:29
15,Busselton,AU,-33.65,115.33,77.0,45,0,3.0,clear sky,2020-12-29 01:00:29
16,Saryg-Sep,RU,51.5,95.6,-30.44,78,0,3.33,clear sky,2020-12-29 01:00:29
17,Oistins,BB,13.07,-59.53,78.8,88,40,3.36,scattered clouds,2020-12-29 01:00:30
18,Ushuaia,AR,-54.8,-68.3,46.4,93,75,5.82,light intensity drizzle,2020-12-29 00:56:37
19,Somerset East,ZA,-32.72,25.59,65.66,81,0,2.39,clear sky,2020-12-29 01:00:30
20,Punta Arenas,CL,-53.15,-70.92,50.0,71,0,8.05,clear sky,2020-12-29 01:00:31
21,Hasaki,JP,35.73,140.83,48.2,70,75,5.82,broken clouds,2020-12-29 00:56:37
22,Arraial Do Cabo,BR,-22.97,-42.03,77.0,78,40,14.99,scattered clouds,2020-12-29 01:00:31
23,Nikolskoye,RU,59.7,30.79,28.4,74,40,15.66,scattered clouds,2020-12-29 01:00:31
24,Georgetown,MY,5.41,100.34,80.6,88,20,1.12,few clouds,2020-12-29 01:00:32
25,Barrow,US,71.29,-156.79,1.4,70,1,9.17,clear sky,2020-12-29 01:00:32
26,Kruisfontein,ZA,-34.0,24.73,63.0,92,3,1.01,clear sky,2020-12-29 01:00:32
27,Saskylakh,RU,71.92,114.08,-15.68,87,100,21.65,overcast clouds,2020-12-29 01:00:33
28,Port Hedland,AU,-20.32,118.57,91.4,52,97,5.82,overcast clouds,2020-12-29 01:00:33
29,Ostrovnoy,RU,68.05,39.51,19.69,93,100,17.43,overcast clouds,2020-12-29 00:57:01
30,Rorvik,NO,64.86,11.24,43.05,67,58,33.49,broken clouds,2020-12-29 01:00:33
31,Castro,BR,-24.79,-50.01,63.86,93,0,4.25,clear sky,2020-12-29 01:00:32
32,Yellowknife,CA,62.46,-114.35,3.2,84,90,6.93,light snow,2020-12-29 01:00:33
33,Tuatapere,NZ,-46.13,167.68,73.99,50,88,5.01,overcast clouds,2020-12-29 01:00:34
34,Moranbah,AU,-22.0,148.05,75.27,79,100,10.71,moderate rain,2020-12-29 01:00:34
35,Port Alfred,ZA,-33.59,26.89,64.0,94,2,13.53,clear sky,2020-12-29 01:00:34
36,Havoysund,NO,71.0,24.66,32.0,94,100,33.33,overcast clouds,2020-12-29 00:55:50
37,East London,ZA,-33.02,27.91,73.0,85,30,15.68,scattered clouds,2020-12-29 01:00:34
38,Carnarvon,AU,-24.87,113.63,80.6,83,90,3.36,overcast clouds,2020-12-29 01:00:35
39,Guerrero Negro,MX,27.98,-114.06,58.51,72,76,9.78,broken clouds,2020-12-29 00:57:08
40,Kaduna,NG,10.52,7.44,65.62,27,59,7.58,broken clouds,2020-12-29 01:00:35
41,Bilibino,RU,68.05,166.44,-18.74,74,0,1.36,clear sky,2020-12-29 01:00:36
42,Katsuura,JP,35.13,140.3,57.99,61,75,2.24,broken clouds,2020-12-29 01:00:36
43,Hermanus,ZA,-34.42,19.23,64.99,83,93,2.89,overcast clouds,2020-12-29 01:00:36
44,Virginia Beach,US,36.85,-75.98,51.01,56,88,1.01,overcast clouds,2020-12-29 01:00:36
45,Dunedin,NZ,-45.87,170.5,61.54,65,0,17.16,clear sky,2020-12-29 00:56:55
46,Victoria,HK,22.29,114.16,68.0,79,6,1.99,clear sky,2020-12-29 00:55:47
47,Muroto,JP,33.28,134.15,48.2,70,75,10.29,broken clouds,2020-12-29 01:00:37
48,Fortuna,US,40.6,-124.16,50.0,70,1,2.59,clear sky,2020-12-29 01:00:37
49,Havelock,US,34.88,-76.9,51.01,93,1,5.82,clear sky,2020-12-29 00:59:47
50,Chuy,UY,-33.7,-53.46,65.1,94,0,3.98,light rain,2020-12-29 01:00:37
51,Yar-Sale,RU,66.83,70.83,-10.71,90,100,12.73,overcast clouds,2020-12-29 01:00:38
52,Baykit,RU,61.67,96.37,-30.69,78,5,0.76,clear sky,2020-12-29 01:00:38
53,Chokurdakh,RU,70.63,147.92,-36.62,84,22,4.9,few clouds,2020-12-29 01:00:38
54,Si Racha,TH,13.17,100.93,82.99,79,93,2.04,light rain,2020-12-29 00:57:51
55,Velizh,RU,55.61,31.2,26.73,97,100,13.18,snow,2020-12-29 01:00:38
56,Robertsport,LR,6.75,-11.37,80.06,86,66,10.45,broken clouds,2020-12-29 01:00:39
57,Banita,RO,45.45,23.27,40.6,79,8,11.43,clear sky,2020-12-29 01:00:39
58,Novoye Leushino,RU,56.81,40.51,6.55,95,73,6.24,broken clouds,2020-12-29 01:00:39
59,Makakilo City,US,21.35,-158.09,82.4,58,1,6.93,clear sky,2020-12-29 01:00:39
60,Mar Del Plata,AR,-38.0,-57.56,69.8,88,75,11.41,broken clouds,2020-12-29 01:00:40
61,Pemangkat,ID,1.17,108.97,78.87,83,70,4.65,broken clouds,2020-12-29 01:00:40
62,Souillac,MU,-20.52,57.52,77.0,78,75,6.93,broken clouds,2020-12-29 01:00:40
63,Ugoofaaru,MV,5.67,73.0,81.73,68,0,7.07,clear sky,2020-12-29 01:00:41
64,Upernavik,GL,72.79,-56.15,26.83,95,100,22.86,snow,2020-12-29 01:00:41
65,Gobabis,NA,-22.45,18.97,71.6,73,88,2.24,light rain,2020-12-29 01:00:42
66,Hithadhoo,MV,-0.6,73.08,81.9,77,79,10.83,broken clouds,2020-12-29 00:56:45
67,Shimoda,JP,34.67,138.95,53.6,71,75,2.24,broken clouds,2020-12-29 01:00:42
68,Tenenkou,ML,14.46,-4.92,71.33,23,0,8.61,clear sky,2020-12-29 01:00:42
69,Mahebourg,MU,-20.41,57.7,77.0,78,75,6.93,broken clouds,2020-12-29 00:56:35
70,Buala,SB,-8.14,159.59,84.67,71,100,2.62,moderate rain,2020-12-29 01:00:43
71,Mangai,CD,-4.05,19.53,70.99,93,86,0.4,overcast clouds,2020-12-29 01:00:43
72,Lamesa,US,32.74,-101.95,46.4,61,75,16.11,broken clouds,2020-12-29 01:00:43
73,Kapaa,US,22.08,-159.32,80.01,69,1,8.05,clear sky,2020-12-29 00:56:34
74,Baoma,CN,31.49,106.11,41.74,63,92,13.06,overcast clouds,2020-12-29 01:00:44
75,Bethel,US,41.37,-73.41,41.0,74,75,6.42,broken clouds,2020-12-29 01:00:44
76,Husavik,IS,66.04,-17.34,28.4,68,90,11.41,light snow,2020-12-29 01:00:44
77,Shaunavon,CA,49.65,-108.42,14.0,85,100,4.7,overcast clouds,2020-12-29 00:59:54
78,Hobart,AU,-42.88,147.33,68.0,42,75,18.34,broken clouds,2020-12-29 00:56:37
79,Bredasdorp,ZA,-34.53,20.04,66.2,72,88,1.12,overcast clouds,2020-12-29 01:00:45
80,Clyde River,CA,70.47,-68.59,1.4,91,86,16.11,light snow,2020-12-29 01:00:45
81,Cape Town,ZA,-33.93,18.42,64.99,77,40,6.93,scattered clouds,2020-12-29 00:57:42
82,Albany,US,42.6,-73.97,39.99,67,98,8.41,overcast clouds,2020-12-29 01:00:05
83,Tura,IN,25.52,90.22,56.28,77,0,3.02,clear sky,2020-12-29 01:00:46
84,New Norfolk,AU,-42.78,147.06,68.0,59,94,3.0,moderate rain,2020-12-29 01:00:46
85,Ponta Do Sol,PT,32.67,-17.1,59.0,58,75,11.41,broken clouds,2020-12-29 00:56:50
86,Iqaluit,CA,63.75,-68.51,5.0,65,75,24.16,light snow,2020-12-29 01:00:46
87,Lorengau,PG,-2.02,147.27,86.07,59,96,6.71,overcast clouds,2020-12-29 01:00:46
88,Cherskiy,RU,68.75,161.3,-36.35,83,34,1.68,scattered clouds,2020-12-29 01:00:47
89,Senanga,ZM,-16.12,23.27,70.29,88,100,3.89,overcast clouds,2020-12-29 01:00:47
90,Atuona,PF,-9.8,-139.03,78.64,72,0,14.92,clear sky,2020-12-29 01:00:47
91,Esfahan,IR,32.66,51.68,21.2,85,0,6.93,mist,2020-12-29 01:00:47
92,Abu Samrah,SY,35.3,37.18,46.36,62,0,6.8,clear sky,2020-12-29 01:00:48
93,Wagar,SD,16.15,36.2,67.23,80,0,8.59,clear sky,2020-12-29 01:00:48
94,Lebu,CL,-37.62,-73.65,57.94,92,21,3.74,few clouds,2020-12-29 01:00:48
95,The Valley,AI,18.22,-63.06,78.8,83,20,1.12,few clouds,2020-12-29 00:58:31
96,Port Elizabeth,ZA,-33.92,25.57,64.4,93,0,5.82,clear sky,2020-12-29 01:00:49
97,Paamiut,GL,61.99,-49.67,28.62,89,100,14.65,overcast clouds,2020-12-29 00:59:33
98,Jumla,NP,29.27,82.18,30.67,46,25,5.21,scattered clouds,2020-12-29 01:00:49
99,Waingapu,ID,-9.66,120.26,84.43,64,91,2.44,overcast clouds,2020-12-29 01:00:49
100,Kinkala,CG,-4.36,14.76,77.0,88,20,3.36,thunderstorm,2020-12-29 01:00:50
101,Dikson,RU,73.51,80.55,-25.83,86,82,8.84,broken clouds,2020-12-29 01:00:50
102,Gat,IL,31.61,34.76,55.99,17,73,1.01,broken clouds,2020-12-29 01:00:50
103,Tuktoyaktuk,CA,69.45,-133.04,-7.6,76,75,2.08,broken clouds,2020-12-29 01:00:50
104,Cave Spring,US,37.23,-80.01,48.2,66,90,11.41,overcast clouds,2020-12-29 01:00:50
105,Butaritari,KI,3.07,172.79,81.55,79,100,20.29,overcast clouds,2020-12-29 00:56:47
106,Saint-Marc-Des-Carrieres,CA,46.68,-72.05,35.6,100,100,3.36,overcast clouds,2020-12-29 01:00:51
107,Nome,US,64.5,-165.41,28.4,92,90,17.22,snow,2020-12-29 01:00:51
108,Contamana,PE,-7.33,-75.02,72.97,97,100,1.77,heavy intensity rain,2020-12-29 01:00:51
109,Constitucion,CL,-35.33,-72.42,57.72,82,0,12.01,clear sky,2020-12-29 00:55:56
110,Bluff,NZ,-46.6,168.33,73.99,50,49,5.01,scattered clouds,2020-12-29 01:00:52
111,Broome,US,42.25,-75.83,36.0,69,90,9.17,overcast clouds,2020-12-29 01:00:52
112,Charlestown,AU,-32.95,151.67,70.0,96,100,6.38,light rain,2020-12-29 01:00:52
113,Sitka,US,57.05,-135.33,42.8,60,90,14.99,overcast clouds,2020-12-29 01:00:52
114,Ostersund,SE,63.18,14.64,30.2,92,90,12.75,light snow,2020-12-29 01:00:53
115,Buchanan,LR,5.88,-10.05,78.8,94,20,7.65,few clouds,2020-12-29 00:58:12
116,Horizontina,BR,-27.63,-54.31,77.0,74,0,1.99,clear sky,2020-12-29 01:00:44
117,Plouzane,FR,48.38,-4.62,42.8,87,13,11.41,few clouds,2020-12-29 01:00:53
118,Dhidhdhoo,MV,6.88,73.1,81.45,70,0,6.76,clear sky,2020-12-29 01:00:53
119,Northam,GB,51.03,-4.22,43.0,87,99,7.0,overcast clouds,2020-12-29 00:56:55
120,Qaanaaq,GL,77.48,-69.36,21.27,92,100,8.93,light snow,2020-12-29 00:56:42
121,Horsham,GB,51.06,-0.33,37.0,93,75,6.93,broken clouds,2020-12-29 01:00:54
122,Cabo San Lucas,MX,22.89,-109.91,78.8,68,5,12.75,clear sky,2020-12-29 00:57:11
123,Kambove,CD,-10.88,26.6,61.25,100,95,3.29,light rain,2020-12-29 00:56:03
124,Olafsvik,IS,64.89,-23.71,29.3,87,98,4.99,snow,2020-12-29 01:00:54
125,Airai,TL,-8.93,125.41,71.35,78,98,1.92,overcast clouds,2020-12-29 01:00:55
126,Puerto Leguizamo,CO,-0.19,-74.78,73.11,97,100,3.0,overcast clouds,2020-12-29 01:00:55
127,Nuuk,GL,64.18,-51.72,24.8,79,100,12.75,light shower snow,2020-12-29 01:00:16
128,Puerto Ayora,EC,-0.74,-90.35,73.99,92,97,4.0,overcast clouds,2020-12-29 01:00:55
129,Skagen,DK,57.72,10.58,39.99,90,100,8.01,overcast clouds,2020-12-29 01:00:55
130,Klaksvik,FO,62.23,-6.59,35.6,80,100,41.38,freezing rain,2020-12-29 01:00:55
131,Poya,NC,-21.35,165.15,84.87,66,61,6.71,broken clouds,2020-12-29 01:00:56
132,Cabra,ES,37.47,-4.44,37.99,85,0,3.0,clear sky,2020-12-29 01:00:56
133,Nemuro,JP,43.32,145.57,19.4,79,20,6.93,few clouds,2020-12-29 01:00:56
134,Luganville,VU,-15.53,167.17,86.0,79,40,3.36,light rain,2020-12-29 01:00:57
135,Bambous Virieux,MU,-20.34,57.76,77.0,78,75,6.93,broken clouds,2020-12-29 01:00:57
136,Rocafuerte,EC,-0.92,-80.43,78.8,65,40,11.41,scattered clouds,2020-12-29 01:00:57
137,Florianopolis,BR,-27.61,-48.5,75.0,94,75,3.36,broken clouds,2020-12-29 00:59:07
138,Sayyan,YE,15.17,44.32,42.91,58,0,2.71,clear sky,2020-12-29 01:00:58
139,Tongliao,CN,43.61,122.27,-9.65,82,0,13.02,clear sky,2020-12-29 01:00:58
140,Provideniya,RU,64.38,-173.3,24.8,85,90,17.9,snow,2020-12-29 00:56:51
141,Blackwater,AU,-23.58,148.88,83.93,53,100,10.36,light rain,2020-12-29 01:00:58
142,Shirokiy,RU,49.76,129.52,-23.58,83,0,5.14,clear sky,2020-12-29 01:00:58
143,Avera,US,33.19,-82.53,50.0,75,1,4.41,clear sky,2020-12-29 01:00:59
144,Marrakesh,MA,31.63,-8.01,48.2,76,0,5.82,clear sky,2020-12-29 00:59:24
145,Kadoma,JP,34.73,135.58,46.0,87,75,3.36,broken clouds,2020-12-29 01:00:59
146,Corner Brook,CA,48.97,-57.95,26.6,79,5,3.58,clear sky,2020-12-29 01:00:59
147,Partyzany,UA,46.33,34.75,41.59,91,74,14.36,broken clouds,2020-12-29 01:01:00
148,Liwale,TZ,-9.77,37.93,69.4,97,100,4.34,overcast clouds,2020-12-29 00:56:06
149,Vilhena,BR,-12.74,-60.15,69.12,97,100,0.89,overcast clouds,2020-12-29 01:01:00
150,Pine Bluff,US,34.23,-92.0,46.4,65,1,8.05,clear sky,2020-12-29 00:57:43
151,Torbay,CA,47.67,-52.73,26.6,86,40,2.24,scattered clouds,2020-12-29 01:01:00
152,Avarua,CK,-21.21,-159.78,84.2,70,88,11.41,overcast clouds,2020-12-29 01:01:01
153,Ibipeba,BR,-11.64,-42.01,70.75,67,0,8.88,clear sky,2020-12-29 01:01:01
154,Flinders,AU,-34.58,150.86,62.01,95,100,3.0,overcast clouds,2020-12-29 01:01:01
155,Mount Isa,AU,-20.73,139.5,84.2,62,100,4.7,overcast clouds,2020-12-29 01:00:48
156,San Patricio,US,28.02,-97.52,71.6,78,75,18.34,broken clouds,2020-12-29 01:01:02
157,Kavaratti,IN,10.57,72.64,81.21,74,3,12.53,clear sky,2020-12-29 01:01:02
158,Port Lincoln,AU,-34.73,135.87,64.53,58,54,3.96,broken clouds,2020-12-29 01:01:02
159,Alenquer,BR,-1.94,-54.74,75.2,100,0,4.7,clear sky,2020-12-29 01:01:03
160,Tsaratanana,MG,-16.78,47.65,74.73,84,100,5.12,light rain,2020-12-29 01:01:03
161,Beringovskiy,RU,63.05,179.32,24.57,98,100,21.21,snow,2020-12-29 01:01:03
162,Synya,RU,65.37,58.04,-23.78,86,1,1.9,clear sky,2020-12-29 01:01:03
163,Sira,IN,13.75,76.91,60.13,72,0,1.86,clear sky,2020-12-29 01:01:03
164,Juneau,US,58.3,-134.42,39.0,87,90,16.11,overcast clouds,2020-12-29 01:00:33
165,Tecoanapa,MX,16.52,-98.75,77.18,76,1,3.06,clear sky,2020-12-29 01:01:04
166,Port Hardy,CA,50.7,-127.42,39.2,93,75,3.36,broken clouds,2020-12-29 01:00:10
167,Akhtubinsk,RU,48.28,46.17,20.66,96,0,10.09,clear sky,2020-12-29 01:01:04
168,Tokur,RU,53.13,132.9,-36.26,82,100,2.24,overcast clouds,2020-12-29 01:01:05
169,Bonthe,SL,7.53,-12.51,78.48,86,100,6.04,overcast clouds,2020-12-29 01:01:05
170,Thung Song,TH,8.16,99.68,75.2,100,20,2.8,few clouds,2020-12-29 01:01:05
171,Rabaul,PG,-4.2,152.17,84.0,74,100,7.18,moderate rain,2020-12-29 01:01:05
172,Muskogee,US,35.58,-95.33,44.6,56,1,9.17,clear sky,2020-12-29 01:01:06
173,Porto Belo,BR,-27.16,-48.55,77.0,83,75,8.05,moderate rain,2020-12-29 00:58:40
174,Kahului,US,20.89,-156.47,84.2,51,40,13.87,scattered clouds,2020-12-29 00:56:47
175,Aktash,RU,50.3,87.73,-17.34,75,95,4.97,overcast clouds,2020-12-29 01:01:06
176,Rawson,AR,-43.3,-65.1,79.43,44,95,15.46,overcast clouds,2020-12-29 01:01:07
177,Aklavik,CA,68.22,-135.01,-7.6,83,90,3.06,overcast clouds,2020-12-29 00:56:42
178,San Quintin,MX,30.48,-115.95,58.3,65,1,13.62,clear sky,2020-12-29 00:56:08
179,Son La,VN,21.32,103.9,63.18,83,3,1.21,clear sky,2020-12-29 00:56:23
180,Labrea,BR,-7.26,-64.8,74.3,94,98,0.74,light rain,2020-12-29 01:01:07
181,Najran,SA,17.49,44.13,50.0,53,0,0.81,clear sky,2020-12-29 01:01:07
182,Lompoc,US,34.64,-120.46,51.8,87,90,4.7,overcast clouds,2020-12-29 01:01:08
183,Zyryanka,RU,65.75,150.85,-28.79,81,100,8.32,overcast clouds,2020-12-29 01:01:08
184,Chimbote,PE,-9.09,-78.58,70.93,76,0,7.07,clear sky,2020-12-29 01:00:21
185,Verkhoyansk,RU,67.54,133.38,-10.64,88,97,2.57,overcast clouds,2020-12-29 01:01:08
186,Itarema,BR,-2.92,-39.92,80.17,76,89,16.78,overcast clouds,2020-12-29 01:01:09
187,Grand Gaube,MU,-20.01,57.66,73.99,83,100,4.0,overcast clouds,2020-12-29 01:01:09
188,Hovd,MN,48.01,91.64,-12.42,85,0,1.07,clear sky,2020-12-29 01:01:09
189,Putyatino,RU,54.16,41.12,6.35,95,0,7.54,clear sky,2020-12-29 01:01:09
190,Las Vegas,US,36.17,-115.14,50.0,57,75,5.82,broken clouds,2020-12-29 00:58:19
191,Kavieng,PG,-2.57,150.8,86.0,63,92,9.51,overcast clouds,2020-12-29 01:01:10
192,Great Yarmouth,GB,52.61,1.73,39.2,93,46,10.29,scattered clouds,2020-12-29 01:01:10
193,Santa Isabel Do Rio Negro,BR,-0.41,-65.02,73.33,99,100,1.1,overcast clouds,2020-12-29 01:01:10
194,Abu Dhabi,AE,24.47,54.37,62.6,88,0,11.3,clear sky,2020-12-29 00:59:03
195,Tarija,BO,-21.54,-64.73,73.4,56,75,1.48,light rain,2020-12-29 01:01:11
196,Necochea,AR,-38.55,-58.74,69.01,86,100,16.08,light rain,2020-12-29 00:59:47
197,Nizhniy Tsasuchey,RU,50.52,115.13,-11.63,78,15,16.42,few clouds,2020-12-29 01:01:11
198,Barra Do Garcas,BR,-15.89,-52.26,75.9,79,66,3.53,broken clouds,2020-12-29 00:59:57
199,Pimentel,PE,-6.84,-79.93,71.6,73,0,16.11,clear sky,2020-12-29 01:01:12
200,Mildura,AU,-34.2,142.15,69.01,34,0,12.75,clear sky,2020-12-29 01:01:12
201,Polyarnyy,RU,69.2,33.45,19.4,79,75,4.47,broken clouds,2020-12-29 01:01:12
202,Lazaro Cardenas,MX,17.96,-102.2,72.9,73,0,4.74,clear sky,2020-12-29 00:59:45
203,Olhao,PT,37.03,-7.84,44.6,93,20,8.05,few clouds,2020-12-29 01:01:13
204,Bahia De Caraquez,EC,-0.6,-80.42,78.8,65,40,11.41,scattered clouds,2020-12-29 01:01:13
205,Palora,EC,-1.7,-77.93,64.17,96,100,2.62,overcast clouds,2020-12-29 01:01:13
206,Oussouye,SN,12.48,-16.55,73.4,88,0,4.7,clear sky,2020-12-29 01:01:13
207,Eyl,SO,7.98,49.82,77.59,77,25,20.78,scattered clouds,2020-12-29 00:59:03
208,Hami,CN,42.8,93.45,11.23,75,0,5.06,clear sky,2020-12-29 01:01:14
209,Sabha,LY,27.04,14.43,50.02,46,0,9.48,clear sky,2020-12-29 01:01:14
210,Tahe,CN,52.33,124.73,-8.39,86,100,11.32,overcast clouds,2020-12-29 01:01:14
211,Pella,RU,59.78,30.82,28.4,74,40,15.66,scattered clouds,2020-12-29 01:01:15
212,Lata,PT,40.16,-8.33,54.0,71,75,17.22,broken clouds,2020-12-29 00:57:15
213,Namibe,AO,-15.2,12.15,71.02,81,100,3.98,overcast clouds,2020-12-29 01:01:15
214,Bairiki,KI,1.33,172.98,80.6,88,75,12.75,light rain,2020-12-29 01:01:16
215,Fukue,JP,32.69,128.84,53.6,81,75,8.05,light rain,2020-12-29 01:01:16
216,Leningradskiy,RU,69.38,178.42,-12.17,83,44,3.2,scattered clouds,2020-12-29 01:01:16
217,Shubarshi,KZ,48.59,57.19,11.84,97,91,2.84,overcast clouds,2020-12-29 01:01:16
218,Leshukonskoye,RU,64.9,45.76,-1.93,92,100,3.74,overcast clouds,2020-12-29 01:01:16
219,Atikokan,CA,48.76,-91.62,-9.29,90,0,5.46,clear sky,2020-12-29 01:01:17
220,San Cristobal,VE,7.77,-72.22,64.85,92,56,2.28,broken clouds,2020-12-29 01:01:17
221,Aras,ES,42.56,-2.36,43.0,70,0,19.46,clear sky,2020-12-29 01:01:17
222,Biloela,AU,-24.42,150.5,86.5,46,100,9.42,overcast clouds,2020-12-29 01:00:12
223,Mehamn,NO,71.04,27.85,24.58,94,100,15.17,overcast clouds,2020-12-29 01:01:18
224,Holme,DK,56.11,10.17,39.2,93,100,2.24,overcast clouds,2020-12-29 01:01:18
225,Rio Das Ostras,BR,-22.53,-41.95,77.0,83,0,12.75,clear sky,2020-12-29 00:58:21
226,Yerkoy,TR,39.64,34.47,43.12,59,100,0.38,overcast clouds,2020-12-29 00:57:05
227,Noyabrsk,RU,63.2,75.45,-9.35,90,100,17.45,light snow,2020-12-29 01:01:18
228,Teguise,ES,29.06,-13.56,60.8,82,20,8.05,few clouds,2020-12-29 01:01:19
229,Vyazemskiy,RU,47.54,134.75,-10.39,80,60,13.56,broken clouds,2020-12-29 01:01:19
230,Lodeynoye Pole,RU,60.73,33.55,19.58,92,100,9.73,overcast clouds,2020-12-29 01:01:19
231,Yumen,CN,40.28,97.2,5.13,77,39,5.53,scattered clouds,2020-12-29 01:01:19
232,Sistranda,NO,63.73,8.83,42.8,60,0,29.97,clear sky,2020-12-29 01:01:20
233,Lavrentiya,RU,65.58,-171.0,17.92,96,100,15.14,light snow,2020-12-29 01:01:20
234,Aykhal,RU,66.0,111.5,-16.6,82,75,8.95,light snow,2020-12-29 01:01:20
235,Kumbo,CM,6.2,10.67,60.17,48,99,4.16,overcast clouds,2020-12-29 01:01:20
236,Mount Gambier,AU,-37.83,140.77,60.8,82,90,14.99,overcast clouds,2020-12-29 01:01:20
237,Pedro Juan Caballero,PY,-22.55,-55.73,75.06,72,34,4.43,scattered clouds,2020-12-29 01:01:21
238,Galeana,MX,24.83,-100.07,57.0,20,0,3.0,clear sky,2020-12-29 01:01:21
239,Grand Forks,US,47.94,-97.43,3.2,84,1,10.29,clear sky,2020-12-29 01:01:21
240,Sikeston,US,36.88,-89.59,35.6,76,1,5.82,clear sky,2020-12-29 01:01:21
241,Saint-Pierre,RE,-21.34,55.48,77.0,69,0,19.46,clear sky,2020-12-29 01:01:21
242,Mogadishu,SO,2.04,45.34,78.85,81,76,17.65,light rain,2020-12-29 00:59:16
243,San Vicente,AR,-26.62,-54.13,70.03,83,33,3.36,light rain,2020-12-29 01:01:22
244,San Francisco,US,37.77,-122.42,55.4,66,75,6.93,broken clouds,2020-12-29 00:57:33
245,Bayir,TR,37.27,28.22,46.4,100,20,2.24,mist,2020-12-29 01:01:22
246,Khatanga,RU,71.97,102.5,-31.32,83,84,16.24,broken clouds,2020-12-29 01:01:22
247,Lewistown,US,40.6,-77.57,39.2,64,90,11.41,overcast clouds,2020-12-29 01:01:23
248,Manzil Salim,TN,35.86,8.48,48.2,42,0,16.11,clear sky,2020-12-29 01:01:23
249,Thanatpin,MM,17.21,96.3,73.4,88,0,5.82,clear sky,2020-12-29 01:01:23
250,Carutapera,BR,-1.2,-46.02,79.16,79,100,8.3,moderate rain,2020-12-29 01:01:23
251,Wanning,CN,18.8,110.4,72.1,81,2,5.17,clear sky,2020-12-29 01:01:24
252,Asilah,MA,35.47,-6.03,55.4,82,75,12.75,light intensity drizzle,2020-12-29 01:01:24
253,Scarborough,GB,54.28,-0.4,37.0,93,100,1.99,moderate rain,2020-12-29 00:58:40
254,Yunyang,CN,33.45,112.71,42.01,41,100,18.12,light rain,2020-12-29 01:01:24
255,Simao,CN,22.79,100.97,51.53,74,3,1.1,clear sky,2020-12-29 00:57:48
256,Ambikapur,IN,23.12,83.2,52.68,69,0,0.76,clear sky,2020-12-29 01:01:24
257,Bathsheba,BB,13.22,-59.52,78.8,88,40,3.36,scattered clouds,2020-12-29 01:01:25
258,Vao,NC,-22.67,167.48,77.85,78,52,18.75,broken clouds,2020-12-29 01:01:25
259,Tasiilaq,GL,65.61,-37.64,26.6,92,100,4.34,overcast clouds,2020-12-29 01:01:25
260,Vagur,FO,61.47,-6.81,38.23,85,100,37.69,light snow,2020-12-29 01:01:26
261,Richards Bay,ZA,-28.78,32.04,72.03,80,0,10.02,clear sky,2020-12-29 00:58:14
262,Salalah,OM,17.02,54.09,71.6,49,0,6.93,clear sky,2020-12-29 01:01:26
263,Loukhi,RU,66.08,33.04,18.5,96,100,8.95,overcast clouds,2020-12-29 01:01:26
264,Monterey,US,36.25,-121.25,44.01,97,43,5.97,scattered clouds,2020-12-29 00:58:22
265,Pontes E Lacerda,BR,-15.23,-59.34,73.45,92,100,1.36,overcast clouds,2020-12-29 01:01:26
266,Huarmey,PE,-10.07,-78.15,70.5,81,98,8.23,overcast clouds,2020-12-29 01:01:26
267,Basoko,CD,1.24,23.62,72.99,90,100,2.93,overcast clouds,2020-12-29 01:01:27
268,Norman Wells,CA,65.28,-126.83,-4.0,83,75,4.7,broken clouds,2020-12-29 01:01:27
269,Alanya,TR,36.54,32.0,57.2,67,75,5.82,light rain,2020-12-29 01:01:27
270,Westport,US,41.14,-73.36,42.8,81,40,3.36,scattered clouds,2020-12-29 01:01:07
271,Ilulissat,GL,69.22,-51.1,28.4,74,100,5.82,overcast clouds,2020-12-29 01:01:27
272,Guasdualito,VE,7.24,-70.73,75.36,77,97,3.38,overcast clouds,2020-12-29 01:01:28
273,Ornskoldsvik,SE,63.29,18.72,32.0,96,100,12.75,light snow,2020-12-29 01:01:28
274,Bosobolo,CD,4.18,19.9,76.01,42,100,2.66,overcast clouds,2020-12-29 01:01:28
275,Vestmannaeyjar,IS,63.44,-20.27,28.67,90,0,22.06,clear sky,2020-12-29 01:01:28
276,Astaneh-Ye Ashrafiyeh,IR,37.26,49.94,43.57,72,2,1.86,clear sky,2020-12-29 01:01:28
277,High Level,CA,58.52,-117.14,-5.8,83,5,4.25,clear sky,2020-12-29 01:01:29
278,Whitehorse,CA,60.72,-135.05,19.4,85,75,16.11,broken clouds,2020-12-29 01:01:29
279,Komsomolskiy,UZ,40.43,71.72,28.4,86,90,2.82,mist,2020-12-29 01:01:29
280,Chapais,CA,49.78,-74.85,8.6,78,90,13.87,light snow,2020-12-29 01:01:29
281,Lasa,IT,46.62,10.7,28.0,92,5,1.12,clear sky,2020-12-29 01:01:29
282,Vaitape,PF,-16.52,-151.75,81.99,68,77,8.23,broken clouds,2020-12-29 01:01:30
283,Mangrol,IN,21.12,70.12,57.88,41,0,14.05,clear sky,2020-12-29 01:01:30
284,Aksha,RU,50.28,113.29,-14.64,77,14,10.58,few clouds,2020-12-29 01:01:30
285,Bend,US,44.06,-121.32,28.0,100,75,0.63,broken clouds,2020-12-29 01:01:29
286,Kenai,US,60.55,-151.26,37.4,86,20,5.82,light rain,2020-12-29 01:01:31
287,Nanortalik,GL,60.14,-45.24,27.91,96,94,9.71,overcast clouds,2020-12-29 01:01:31
288,Pevek,RU,69.7,170.31,-23.84,86,0,1.92,clear sky,2020-12-29 01:01:31
289,Zyryanovsk,KZ,49.74,84.27,-15.47,75,39,0.43,scattered clouds,2020-12-29 01:01:31
290,Penzance,GB,50.12,-5.54,44.01,81,99,24.16,overcast clouds,2020-12-29 01:01:31
291,Longyearbyen,SJ,78.22,15.64,28.4,79,75,27.51,light snow,2020-12-29 01:01:31
292,Empalme,MX,27.97,-110.82,64.4,82,40,8.05,fog,2020-12-29 01:01:32
293,Gelemso,ET,8.82,40.52,54.88,64,67,3.42,broken clouds,2020-12-29 01:01:32
294,Smithers,CA,54.78,-127.17,24.8,92,90,2.24,overcast clouds,2020-12-29 01:01:32
295,Yulara,AU,-25.24,130.99,77.0,15,0,19.46,clear sky,2020-12-29 01:01:32
296,Raton,US,36.9,-104.44,33.8,69,90,14.99,overcast clouds,2020-12-29 01:01:32
297,Tuchola,PL,53.59,17.86,42.01,89,100,17.0,overcast clouds,2020-12-29 01:01:33
298,Kaya,BF,13.09,-1.08,66.76,24,0,7.67,clear sky,2020-12-29 01:01:33
299,Choix,MX,26.71,-108.32,68.29,35,92,0.78,overcast clouds,2020-12-29 01:01:33
300,Severo-Yeniseyskiy,RU,60.37,93.04,-28.88,83,0,2.86,clear sky,2020-12-29 01:01:33
301,Faanui,PF,-16.48,-151.75,81.07,68,11,7.56,few clouds,2020-12-29 01:01:34
302,Saint-Augustin,CA,51.23,-58.65,28.89,93,100,12.3,overcast clouds,2020-12-29 01:01:34
303,Yushala,RU,57.08,64.26,-11.2,76,40,6.71,light shower snow,2020-12-29 01:01:34
304,Adrar,MR,20.5,-10.07,73.76,26,100,7.63,overcast clouds,2020-12-29 01:01:34
305,Aitape,PG,-3.14,142.35,86.81,61,93,1.83,overcast clouds,2020-12-29 01:01:35
306,Beira,MZ,-19.84,34.84,82.4,83,40,10.29,scattered clouds,2020-12-29 01:01:35
307,Katherine,AU,-14.47,132.27,82.4,78,75,10.29,broken clouds,2020-12-29 01:01:35
308,La Paz,BO,-16.5,-68.15,44.6,87,75,9.17,broken clouds,2020-12-29 01:00:19
309,Ust-Nera,RU,64.57,143.2,-36.58,72,96,1.61,overcast clouds,2020-12-29 01:01:35
310,Nantucket,US,41.28,-70.1,48.2,93,90,9.17,overcast clouds,2020-12-29 01:01:36
311,Weinan,CN,34.5,109.51,33.8,74,90,6.71,overcast clouds,2020-12-29 01:01:36
312,Tocopilla,CL,-22.09,-70.2,69.51,59,22,4.85,few clouds,2020-12-29 01:00:19
313,Ribeira Grande,PT,38.52,-28.7,58.08,75,100,19.95,overcast clouds,2020-12-29 01:01:36
314,Tambovka,RU,50.1,128.05,-16.6,56,0,6.71,clear sky,2020-12-29 01:01:36
315,Jiexiu,CN,37.02,111.91,22.64,61,100,4.7,overcast clouds,2020-12-29 01:01:37
316,Constantine,DZ,36.37,6.61,46.4,74,40,12.75,scattered clouds,2020-12-29 00:58:12
317,Yeppoon,AU,-23.13,150.73,86.0,55,40,8.05,scattered clouds,2020-12-29 01:01:37
318,Isetskoye,RU,56.49,65.32,-4.67,92,86,4.76,overcast clouds,2020-12-29 01:01:37
319,Hambantota,LK,6.12,81.12,73.4,100,20,3.36,few clouds,2020-12-29 01:01:37
320,Baie-Comeau,CA,49.22,-68.15,32.0,95,90,9.17,snow,2020-12-29 01:01:37
321,Raga,SS,8.46,25.68,68.59,32,0,2.71,clear sky,2020-12-29 01:01:38
322,Athens,GR,37.98,23.72,57.0,81,75,10.92,broken clouds,2020-12-29 00:57:48
323,Sao Filipe,CV,14.9,-24.5,74.71,78,30,10.2,scattered clouds,2020-12-29 01:01:38
324,Myitkyina,MM,25.38,97.4,52.5,66,0,2.33,clear sky,2020-12-29 01:01:38
325,Srikakulam,IN,18.3,83.9,62.73,83,0,6.31,clear sky,2020-12-29 01:01:38
326,Grindavik,IS,63.84,-22.43,28.4,63,75,9.17,broken clouds,2020-12-29 01:01:39
327,Wageningen,NL,51.97,5.67,39.99,100,75,3.36,mist,2020-12-29 01:01:39
328,Cockburn Town,TC,21.46,-71.14,77.0,73,40,8.05,scattered clouds,2020-12-29 01:01:39
329,Coquimbo,CL,-29.95,-71.34,60.8,82,18,11.41,few clouds,2020-12-29 00:57:06
330,Saint Anthony,US,45.02,-93.22,19.4,72,1,4.7,clear sky,2020-12-29 01:01:40
331,Diamantino,BR,-14.41,-56.45,74.5,85,43,2.39,scattered clouds,2020-12-29 01:01:40
332,Kuvandyk,RU,51.48,57.36,4.06,94,77,2.73,broken clouds,2020-12-29 01:01:41
333,Ouegoa,NC,-20.35,164.43,85.15,66,47,11.88,scattered clouds,2020-12-29 01:01:41
334,Petropavlovsk-Kamchatskiy,RU,53.05,158.65,8.6,60,100,6.71,overcast clouds,2020-12-29 01:01:41
335,Villarrobledo,ES,39.27,-2.6,33.01,95,0,8.01,clear sky,2020-12-29 01:01:41
336,Arlit,NE,18.74,7.39,61.11,29,0,3.53,clear sky,2020-12-29 01:01:41
337,Korla,CN,41.76,86.15,17.35,86,0,5.1,clear sky,2020-12-29 01:01:42
338,Sinnamary,GF,5.38,-52.95,78.28,86,29,8.55,scattered clouds,2020-12-29 01:01:42
339,Ponta Delgada,PT,37.73,-25.67,55.4,71,75,9.17,broken clouds,2020-12-29 01:01:42
340,Faya,SA,18.39,42.45,51.8,49,0,1.43,clear sky,2020-12-29 01:01:42
341,Amga,RU,60.9,131.96,-37.17,80,100,2.68,overcast clouds,2020-12-29 01:01:42
342,Port Blair,IN,11.67,92.75,78.8,88,40,4.7,mist,2020-12-29 01:01:43
343,Pacific Grove,US,36.62,-121.92,53.6,76,20,9.17,few clouds,2020-12-29 00:57:21
344,Severomuysk,RU,56.15,113.43,-30.24,85,99,7.65,overcast clouds,2020-12-29 01:01:43
345,Celestun,MX,20.87,-90.4,71.49,72,4,16.26,clear sky,2020-12-29 01:01:43
346,Bara,NG,10.37,10.73,69.28,25,96,8.1,overcast clouds,2020-12-29 01:01:43
347,Oyama,JP,36.3,139.8,50.0,93,75,1.12,broken clouds,2020-12-29 01:01:44
348,Noumea,NC,-22.28,166.46,86.0,58,75,5.82,broken clouds,2020-12-29 01:01:44
349,Beloha,MG,-25.17,45.05,78.22,60,74,10.02,broken clouds,2020-12-29 01:01:44
350,Knysna,ZA,-34.04,23.05,64.4,93,89,3.36,overcast clouds,2020-12-29 01:01:44
351,Charleston,US,32.78,-79.93,55.0,87,1,4.34,clear sky,2020-12-29 01:01:45
352,Piquete,BR,-22.61,-45.18,68.0,94,75,2.24,moderate rain,2020-12-29 01:01:45
353,Batemans Bay,AU,-35.72,150.18,63.0,87,100,3.0,overcast clouds,2020-12-29 01:01:01
354,Teguldet,RU,57.31,88.17,-14.58,84,100,8.16,overcast clouds,2020-12-29 01:01:45
355,Portland,US,45.52,-122.68,43.0,79,0,2.91,clear sky,2020-12-29 01:00:14
356,Novaya Mayna,RU,54.15,49.75,12.2,85,90,6.71,overcast clouds,2020-12-29 01:01:46
357,Nelson Bay,AU,-32.72,152.15,72.0,88,90,10.29,overcast clouds,2020-12-29 01:01:46
358,Tezu,IN,27.92,96.17,56.12,37,0,3.31,clear sky,2020-12-29 01:01:46
359,Naze,JP,28.37,129.48,71.6,73,75,14.99,broken clouds,2020-12-29 01:01:46
360,Lulea,SE,65.58,22.15,32.0,98,100,11.41,light snow,2020-12-29 01:00:04
361,Daru,PG,-9.08,143.21,78.98,87,100,9.98,overcast clouds,2020-12-29 01:01:47
362,Thohoyandou,ZA,-22.95,30.48,70.39,95,77,2.86,light rain,2020-12-29 01:01:47
363,Prince Albert,CA,53.2,-105.77,10.4,78,75,8.05,broken clouds,2020-12-29 01:00:11
364,Tabuk,PH,17.42,121.44,78.49,81,99,2.3,overcast clouds,2020-12-29 01:01:48
365,Marsa Matruh,EG,31.35,27.25,53.6,76,0,4.7,clear sky,2020-12-29 01:01:48
366,Palmer,US,42.16,-72.33,44.6,89,75,8.05,broken clouds,2020-12-29 01:01:48
367,Rio Grande,BR,-32.03,-52.1,71.01,85,0,1.01,clear sky,2020-12-29 01:00:20
368,Laguna,US,38.42,-121.42,54.0,66,75,0.56,broken clouds,2020-12-29 01:01:48
369,Yicheng,CN,31.37,119.87,54.0,97,100,8.43,overcast clouds,2020-12-29 00:59:31
370,Zwedru,LR,6.07,-8.13,72.63,95,4,3.04,clear sky,2020-12-29 01:01:49
371,Ambilobe,MG,-13.2,49.05,75.43,92,100,0.69,light rain,2020-12-29 01:01:49
372,Kiama,AU,-34.68,150.87,62.01,95,100,3.0,overcast clouds,2020-12-29 01:01:49
373,Rocha,UY,-34.48,-54.33,63.27,96,0,5.17,clear sky,2020-12-29 01:01:49
374,Boralday,KZ,43.36,76.86,15.8,92,90,8.95,mist,2020-12-29 01:01:49
375,Hays,US,30.05,-98.03,68.0,47,93,3.0,overcast clouds,2020-12-29 01:01:50
376,Poindimie,NC,-20.93,165.33,81.95,75,40,13.33,scattered clouds,2020-12-29 01:01:50
377,Henties Bay,NA,-22.12,14.28,64.0,88,100,1.01,overcast clouds,2020-12-29 01:01:50
378,Sangar,RU,63.92,127.47,-38.6,81,100,4.16,overcast clouds,2020-12-29 01:01:50
379,Palmares,BR,-8.68,-35.59,70.83,87,1,3.67,clear sky,2020-12-29 01:01:50
380,Kulu,TR,39.1,33.08,42.33,76,98,3.87,overcast clouds,2020-12-29 01:01:50
381,Tautira,PF,-17.73,-149.15,86.0,66,40,11.41,scattered clouds,2020-12-29 00:57:14
382,Alofi,NU,-19.06,-169.92,84.2,74,75,8.05,shower rain,2020-12-29 00:57:17
383,Trenggalek,ID,-8.05,111.72,80.17,75,100,1.57,overcast clouds,2020-12-29 01:01:51
384,Evensk,RU,61.95,159.23,4.42,82,100,13.58,overcast clouds,2020-12-29 01:01:51
385,Roald,NO,62.58,6.13,41.0,60,58,12.75,broken clouds,2020-12-29 01:01:51
386,Koshki,RU,54.21,50.47,-6.74,91,29,4.07,scattered clouds,2020-12-29 01:01:52
387,Chuzhou,CN,32.32,118.3,46.0,97,100,3.0,light rain,2020-12-29 01:01:52
388,Sobolevo,RU,54.43,31.9,25.29,97,100,17.56,overcast clouds,2020-12-29 01:01:52
389,Saldanha,ZA,-33.01,17.94,60.8,77,0,3.36,clear sky,2020-12-29 01:01:52
390,Birjand,IR,32.87,59.22,19.4,62,0,4.7,clear sky,2020-12-29 01:01:52
391,Porbandar,IN,21.64,69.61,59.18,38,0,13.49,clear sky,2020-12-29 00:57:58
392,Hofn,IS,64.25,-15.21,26.67,87,100,19.15,overcast clouds,2020-12-29 01:01:53
393,Ulladulla,AU,-35.35,150.47,60.8,100,90,8.05,overcast clouds,2020-12-29 01:01:53
394,Megion,RU,61.03,76.11,-5.8,76,90,13.42,snow,2020-12-29 01:01:53
395,Benguela,AO,-12.58,13.41,75.42,78,100,3.69,overcast clouds,2020-12-29 01:01:53
396,Batagay,RU,67.63,134.63,-18.94,87,100,1.54,overcast clouds,2020-12-29 01:01:53
397,Elkton,US,39.61,-75.83,39.0,72,4,7.49,clear sky,2020-12-29 01:01:54
398,Iracoubo,GF,5.48,-53.2,78.6,86,7,8.88,clear sky,2020-12-29 01:01:54
399,Bhandara,IN,21.17,79.65,60.8,67,0,3.36,mist,2020-12-29 01:01:54
400,Bengkulu,ID,-3.8,102.27,76.15,86,100,8.1,overcast clouds,2020-12-29 01:01:54
401,Hvolsvollur,IS,63.75,-20.22,19.02,89,0,7.14,clear sky,2020-12-29 01:01:54
402,Salvador,SV,13.83,-88.92,73.4,83,0,3.36,clear sky,2020-12-29 01:01:55
403,Mercedes,AR,-34.65,-59.43,80.01,74,17,1.01,few clouds,2020-12-29 00:57:24
404,Launceston,AU,-41.45,147.17,64.99,59,90,12.75,overcast clouds,2020-12-29 00:58:53
405,Sedalia,US,38.7,-93.23,33.01,90,1,4.7,clear sky,2020-12-29 00:59:55
406,Batagay-Alyta,RU,67.8,130.41,-6.38,88,100,4.72,overcast clouds,2020-12-29 01:01:55
407,Vila Franca Do Campo,PT,37.72,-25.43,55.4,71,75,9.17,broken clouds,2020-12-29 00:57:02
408,Sao Joao Da Barra,BR,-21.64,-41.05,75.81,85,100,16.93,overcast clouds,2020-12-29 01:01:55
409,Mantua,IT,45.17,10.78,32.0,94,98,1.01,overcast clouds,2020-12-29 01:01:56
410,Pampas,PE,-12.4,-74.9,49.8,81,100,1.95,light rain,2020-12-29 01:01:56
411,Sur,OM,22.57,59.53,67.39,45,0,11.99,clear sky,2020-12-29 01:01:56
412,Puerto Madryn,AR,-42.77,-65.04,73.11,61,56,16.91,broken clouds,2020-12-29 01:01:56
413,Libin,BE,49.98,5.28,35.01,99,100,6.08,light snow,2020-12-29 01:01:57
414,Merrill,US,45.18,-89.68,19.4,78,90,9.17,light snow,2020-12-29 01:01:57
415,Port Maria,JM,18.37,-76.89,78.01,86,99,8.99,overcast clouds,2020-12-29 01:01:57
416,Kargasok,RU,59.06,80.86,-7.44,86,100,16.8,overcast clouds,2020-12-29 01:01:57
417,Vostok,RU,46.49,135.88,-15.88,86,44,7.0,scattered clouds,2020-12-29 01:01:58
418,San Policarpo,PH,12.18,125.51,82.74,74,63,4.81,broken clouds,2020-12-29 01:01:58
419,Saint-Joseph,RE,-21.37,55.62,77.0,69,0,19.46,clear sky,2020-12-29 01:01:58
420,Puerto Princesa,PH,9.74,118.74,78.8,88,20,4.7,few clouds,2020-12-29 01:01:58
421,Guangyuan,CN,32.44,105.82,43.0,81,100,1.01,overcast clouds,2020-12-29 01:01:58
422,Gaoual,GN,11.75,-13.2,71.87,69,36,2.77,scattered clouds,2020-12-29 01:01:59
423,Dingle,PH,11.0,122.67,81.34,83,97,4.59,overcast clouds,2020-12-29 01:01:59
424,Sri Aman,MY,1.24,111.46,77.0,94,40,1.36,light rain,2020-12-29 01:01:59
425,Betioky,MG,-23.72,44.38,76.44,66,100,8.97,overcast clouds,2020-12-29 01:01:59
426,Athabasca,CA,54.72,-113.29,21.2,100,0,6.93,clear sky,2020-12-29 01:00:12
427,Berlevag,NO,70.86,29.09,25.66,94,100,20.62,overcast clouds,2020-12-29 01:02:00
428,Kaitangata,NZ,-46.28,169.85,60.01,74,100,17.0,overcast clouds,2020-12-29 01:02:00
429,Nalut,LY,30.33,10.85,42.57,53,100,8.81,overcast clouds,2020-12-29 01:02:00
430,Staryy Nadym,RU,65.61,72.68,-10.52,90,100,15.41,light snow,2020-12-29 01:02:00
431,Pavlodar,KZ,52.3,76.95,-5.8,70,0,13.42,clear sky,2020-12-29 00:59:32
432,Port Shepstone,ZA,-30.74,30.45,70.0,87,1,13.4,clear sky,2020-12-29 01:02:01
433,Itaituba,BR,-4.28,-55.98,76.05,95,100,1.57,moderate rain,2020-12-29 01:02:01
434,Coahuayana,MX,18.73,-103.68,77.0,50,5,0.38,clear sky,2020-12-29 01:02:01
435,Ancud,CL,-41.87,-73.82,64.0,77,0,10.29,clear sky,2020-12-29 01:02:01
436,Taoudenni,ML,22.68,-3.98,69.44,23,100,9.24,overcast clouds,2020-12-29 01:02:01
437,Touros,BR,-5.2,-35.46,77.0,78,20,4.7,light rain,2020-12-29 01:02:02
438,Kangundo,KE,-1.3,37.35,62.6,77,0,5.82,clear sky,2020-12-29 01:02:02
439,Vega De Alatorre,MX,20.03,-96.63,69.67,75,0,10.11,clear sky,2020-12-29 01:02:02
440,Sol-Iletsk,RU,51.16,54.99,5.5,94,0,4.25,clear sky,2020-12-29 01:02:02
441,Ormara,PK,25.21,64.64,62.47,30,0,13.78,clear sky,2020-12-29 01:02:03
442,Rapid Valley,US,44.06,-103.15,26.01,85,1,8.05,clear sky,2020-12-29 01:02:03
443,Shakawe,BW,-18.37,21.85,72.43,75,86,3.85,overcast clouds,2020-12-29 01:02:03
444,Teresina,BR,-5.09,-42.8,84.2,66,0,3.36,clear sky,2020-12-29 01:02:03
445,Marion,US,39.77,-86.16,30.0,74,90,8.05,overcast clouds,2020-12-29 00:59:21
446,Morant Bay,JM,17.88,-76.41,82.4,65,75,14.99,broken clouds,2020-12-29 01:02:03
447,Battle Creek,US,42.32,-85.18,26.6,68,1,8.05,clear sky,2020-12-29 00:58:57
448,Tabas,IR,33.6,56.92,33.8,43,0,4.7,clear sky,2020-12-29 01:02:04
449,Takoradi,GH,4.88,-1.76,79.48,83,80,8.68,broken clouds,2020-12-29 01:02:04
450,Santa Rosa,PH,14.31,121.11,84.0,83,40,1.12,scattered clouds,2020-12-29 01:02:04
451,Qaqortoq,GL,60.72,-46.03,30.2,68,99,12.75,light snow,2020-12-29 01:02:04
452,Dakar,SN,14.69,-17.44,71.6,94,0,11.41,clear sky,2020-12-29 01:02:05
453,Esperance,AU,-33.87,121.9,68.0,45,100,13.87,overcast clouds,2020-12-29 01:02:05
454,Peniche,PT,39.36,-9.38,54.0,71,9,8.01,clear sky,2020-12-29 01:01:41
455,Bitlis,TR,38.5,42.25,25.05,89,100,3.2,overcast clouds,2020-12-29 01:02:05
456,Saint George,US,37.1,-113.58,43.0,75,75,9.17,broken clouds,2020-12-29 01:01:55
457,Brigantine,US,39.41,-74.36,45.0,65,1,11.9,clear sky,2020-12-29 00:57:38
458,Loreto,MX,22.27,-101.97,58.14,31,0,4.36,clear sky,2020-12-29 01:02:06
459,Thompson,CA,55.74,-97.86,6.8,84,90,12.75,light snow,2020-12-29 01:02:06
460,Baruun-Urt,MN,46.68,113.28,-26.72,80,0,10.36,clear sky,2020-12-29 01:02:06
461,Mackay,AU,-21.15,149.2,80.01,94,90,8.05,light rain,2020-12-29 01:02:06
462,Byron Bay,AU,-28.65,153.62,82.4,58,40,14.99,scattered clouds,2020-12-29 01:02:06
463,Tamandare,BR,-8.76,-35.1,76.77,76,0,10.31,clear sky,2020-12-29 01:02:06
464,Puerto Carreno,CO,6.19,-67.49,77.81,77,100,3.76,light rain,2020-12-29 01:00:22
465,Big Rapids,US,43.7,-85.48,25.0,73,90,6.93,overcast clouds,2020-12-29 00:57:19
466,Kudahuvadhoo,MV,2.67,72.89,82.44,72,86,8.7,overcast clouds,2020-12-29 01:00:42
467,Ordynskoye,RU,54.37,81.9,-3.35,83,100,10.54,overcast clouds,2020-12-29 01:02:07
468,Santa Fe,AR,-31.63,-60.7,82.99,63,0,1.99,clear sky,2020-12-29 00:57:55
469,Japura,ID,-0.32,102.35,76.95,93,100,1.57,light rain,2020-12-29 01:02:08
470,Storforshei,NO,66.4,14.52,25.41,90,96,7.99,overcast clouds,2020-12-29 01:02:08
471,Mendi,PG,-6.18,143.65,66.02,83,88,3.53,light rain,2020-12-29 01:02:08
472,Lahij,YE,13.17,44.58,68.25,74,0,5.77,clear sky,2020-12-29 01:02:08
473,Camana,PE,-16.62,-72.71,72.39,75,100,8.99,overcast clouds,2020-12-29 01:02:09
474,Butembo,CD,0.15,29.28,57.96,75,2,2.51,clear sky,2020-12-29 01:02:09
475,Vredendal,ZA,-31.67,18.5,56.98,92,0,5.06,clear sky,2020-12-29 01:02:09
476,Oktyabrskoye,RU,43.06,44.74,28.4,100,96,2.24,overcast clouds,2020-12-29 01:02:09
477,Tagusao,PH,9.19,117.81,82.06,74,0,3.76,clear sky,2020-12-29 01:02:10
478,Lac Du Bonnet,CA,50.25,-96.06,1.4,77,0,13.87,clear sky,2020-12-29 01:02:10
479,Belaya Gora,RU,68.53,146.42,-35.27,81,0,1.05,clear sky,2020-12-29 01:02:10
480,Delvada,IN,20.77,71.03,58.05,34,0,12.77,clear sky,2020-12-29 01:02:10
481,Deep River,CA,46.1,-77.5,23.0,73,90,11.41,overcast clouds,2020-12-29 01:02:10
482,Inhambane,MZ,-23.86,35.38,76.62,84,96,5.41,overcast clouds,2020-12-29 01:02:11
483,General Roca,AR,-39.03,-67.58,87.8,33,0,3.36,clear sky,2020-12-29 01:02:11
484,Nanakuli,US,21.39,-158.15,82.4,58,1,6.93,clear sky,2020-12-29 01:02:11
485,Voskresenskoye,RU,56.84,45.43,-2.83,92,0,2.44,clear sky,2020-12-29 01:02:11
486,North Bend,US,43.41,-124.22,51.8,62,1,9.17,clear sky,2020-12-29 00:57:27
487,Atambua,ID,-9.11,124.89,82.31,70,46,3.98,scattered clouds,2020-12-29 01:02:12
488,Rey Bouba,CM,8.67,14.18,69.08,28,52,1.39,broken clouds,2020-12-29 01:02:12
489,Kodinsk,RU,58.69,99.18,-34.4,80,0,2.1,clear sky,2020-12-29 01:01:02
490,Jever,DE,53.58,7.9,35.6,93,100,5.82,overcast clouds,2020-12-29 01:02:12
491,Tutoia,BR,-2.76,-42.27,81.09,76,0,12.37,clear sky,2020-12-29 01:02:12
492,Wahiawa,US,21.5,-158.02,82.4,65,75,8.05,broken clouds,2020-12-29 01:02:13
493,Kihei,US,20.79,-156.47,84.2,51,40,13.87,scattered clouds,2020-12-29 01:02:13
494,Nunspeet,NL,52.37,5.77,37.99,88,100,4.99,overcast clouds,2020-12-29 01:02:13
495,Qui Nhon,VN,13.77,109.23,72.45,77,85,7.14,overcast clouds,2020-12-29 01:01:05
496,Virden,US,39.5,-89.77,30.0,76,0,1.99,clear sky,2020-12-29 01:02:13
497,Lagoa,PT,39.05,-27.98,56.53,74,100,19.17,overcast clouds,2020-12-29 01:02:13
498,Kasiri,SL,8.94,-13.11,77.76,86,100,5.93,overcast clouds,2020-12-29 01:02:14
499,Nishihara,JP,26.18,127.76,73.4,73,75,5.82,broken clouds,2020-12-29 01:02:14
500,Gazojak,TM,41.19,61.4,29.37,90,88,6.17,overcast clouds,2020-12-29 01:02:14
501,Rock Sound,BS,24.9,-76.2,71.89,73,0,23.96,clear sky,2020-12-29 01:02:14
502,Anadyr,RU,64.75,177.48,17.6,85,75,20.13,snow,2020-12-29 01:02:14
503,Morro Bay,US,35.37,-120.85,50.0,78,29,1.99,scattered clouds,2020-12-29 01:02:15
504,Tha Chang,TH,9.26,99.19,79.0,100,20,2.24,few clouds,2020-12-29 01:02:15
505,Quelimane,MZ,-17.88,36.89,80.6,88,75,4.7,broken clouds,2020-12-29 01:02:15
506,Graaff-Reinet,ZA,-32.25,24.53,66.0,79,0,2.37,clear sky,2020-12-29 01:02:15
507,Wenzhou,CN,28.0,120.67,58.87,61,0,2.75,clear sky,2020-12-29 01:02:16
508,Vostochnyy,RU,55.82,37.87,12.2,92,75,8.95,broken clouds,2020-12-29 01:02:16
509,Olinda,BR,-8.01,-34.86,78.8,65,75,14.99,broken clouds,2020-12-29 00:57:46
510,Maragogi,BR,-9.01,-35.22,76.08,78,0,10.25,clear sky,2020-12-29 01:02:11
511,Ahipara,NZ,-35.17,173.17,65.73,51,0,12.57,clear sky,2020-12-29 01:02:16
512,Malazgirt,TR,39.14,42.54,22.96,84,100,1.79,overcast clouds,2020-12-29 01:02:16
513,Seymchan,RU,62.88,152.43,-29.81,82,100,0.81,overcast clouds,2020-12-29 01:02:17
514,Acarau,BR,-2.89,-40.12,80.06,76,91,17.07,overcast clouds,2020-12-29 01:02:17
515,Diego De Almagro,CL,-26.37,-70.05,59.14,59,1,1.81,clear sky,2020-12-29 01:01:28
516,Hamilton,US,39.18,-84.53,34.0,88,90,12.75,overcast clouds,2020-12-29 00:59:04
517,Banda Aceh,ID,5.56,95.32,78.51,81,100,7.94,overcast clouds,2020-12-29 00:58:03
518,Isangel,VU,-19.55,169.27,83.39,73,84,17.65,broken clouds,2020-12-29 01:02:17
519,Tuy Hoa,VN,13.08,109.3,72.88,79,67,4.88,broken clouds,2020-12-29 01:02:18
520,Payo,ID,-3.75,103.64,75.51,94,100,0.81,overcast clouds,2020-12-29 01:02:18
521,Newport,GB,51.59,-3.0,34.0,96,89,5.37,overcast clouds,2020-12-29 01:02:18
522,Kholm,RU,59.27,32.85,21.65,93,98,11.41,overcast clouds,2020-12-29 01:02:18
523,Gigmoto,PH,13.78,124.39,83.3,75,90,5.35,overcast clouds,2020-12-29 01:02:18
524,Ashtabula,US,41.7,-80.77,33.01,97,90,11.41,light snow,2020-12-29 01:02:19
525,Narsaq,GL,60.92,-46.05,30.2,68,29,12.75,light snow,2020-12-29 01:02:19
526,Santa Lucia,ES,27.91,-15.54,64.4,77,20,6.93,few clouds,2020-12-29 01:02:19
527,Seminole,US,28.71,-81.21,62.6,72,1,8.05,clear sky,2020-12-29 01:02:19
528,Carroll,US,39.55,-77.02,50.0,61,75,11.41,broken clouds,2020-12-29 01:02:19
529,Dillon,US,34.42,-79.37,50.0,70,1,5.26,clear sky,2020-12-29 01:02:19
530,Maniitsoq,GL,65.42,-52.9,23.18,97,100,8.32,snow,2020-12-29 01:02:20
531,Lucapa,AO,-8.42,20.74,66.96,97,100,1.95,overcast clouds,2020-12-29 01:02:20
532,Gimli,CA,50.63,-96.99,1.4,84,28,12.75,scattered clouds,2020-12-29 01:02:20
533,Batticaloa,LK,7.71,81.69,76.55,89,53,3.69,broken clouds,2020-12-29 01:02:20
534,Lakes Entrance,AU,-37.88,147.98,64.99,65,14,3.0,few clouds,2020-12-29 01:02:20
535,Barra,BR,-11.09,-43.14,77.47,61,15,4.74,few clouds,2020-12-29 01:00:47
536,Alice Springs,AU,-23.7,133.88,80.01,20,78,10.29,broken clouds,2020-12-29 01:02:21
537,Lodja,CD,-3.48,23.43,69.66,96,93,1.3,overcast clouds,2020-12-29 01:02:21
538,Gadung,PH,6.8,124.02,82.92,70,98,0.76,overcast clouds,2020-12-29 01:02:21
539,Dalgopol,BG,43.05,27.35,51.8,76,0,9.17,clear sky,2020-12-29 01:01:07
540,Panguna,PG,-6.32,155.48,76.93,88,100,1.54,moderate rain,2020-12-29 01:02:22
541,Kalmunai,LK,7.42,81.82,76.06,89,17,0.54,few clouds,2020-12-29 01:01:39
542,Aswan,EG,24.09,32.91,60.71,72,0,8.12,clear sky,2020-12-29 01:02:22
543,Seoul,KR,37.57,126.98,37.4,74,40,4.03,haze,2020-12-29 00:58:07
544,Wellington,NZ,-41.29,174.78,60.8,67,9,14.99,clear sky,2020-12-29 01:02:22
545,Presidencia Roque Saenz Pena,AR,-26.79,-60.44,81.48,55,0,5.79,light rain,2020-12-29 00:58:10
546,Aden,YE,12.78,45.04,76.55,75,0,17.22,clear sky,2020-12-29 00:58:11
547,Kurilsk,RU,45.23,147.88,18.45,88,100,19.64,overcast clouds,2020-12-29 01:02:23
548,Talnakh,RU,69.49,88.4,-32.8,73,0,2.24,clear sky,2020-12-29 01:02:23
549,Lillooet,CA,50.69,-121.94,34.0,100,90,1.3,overcast clouds,2020-12-29 01:02:23
550,Zemio,CF,5.03,25.14,72.43,41,100,2.3,overcast clouds,2020-12-29 01:02:23
551,Vardo,NO,70.37,31.11,28.17,94,100,19.33,overcast clouds,2020-12-29 01:02:24
552,Jiangyou,CN,31.77,104.72,44.08,56,98,1.3,overcast clouds,2020-12-29 01:02:24
553,North Platte,US,41.12,-100.77,33.8,69,90,12.75,light snow,2020-12-29 01:01:39
554,Moyo,UG,3.66,31.72,69.93,38,23,1.43,few clouds,2020-12-29 01:02:24
555,Kysyl-Syr,RU,63.9,122.76,-0.99,91,100,11.9,light snow,2020-12-29 01:02:24
556,Wagga Wagga,AU,-35.12,147.37,73.99,40,0,3.36,clear sky,2020-12-29 01:01:44
557,Pangnirtung,CA,66.15,-65.71,-1.03,86,100,6.55,light snow,2020-12-29 01:02:25
558,Maumere,ID,-8.62,122.21,83.55,73,100,0.56,light rain,2020-12-29 01:02:25
559,Senneterre,CA,48.38,-77.23,6.8,77,90,8.05,overcast clouds,2020-12-29 01:02:25
560,College,US,64.86,-147.8,15.8,85,75,3.36,broken clouds,2020-12-29 01:02:25
561,Egvekinot,RU,66.32,-179.17,-3.19,88,98,22.77,overcast clouds,2020-12-29 01:02:25
562,Yebaishou,CN,41.4,119.64,-8.5,69,0,18.37,clear sky,2020-12-29 01:02:26
563,Nouadhibou,MR,20.93,-17.03,66.2,88,20,9.17,few clouds,2020-12-29 01:02:26
564,Impfondo,CG,1.64,18.07,74.71,77,100,1.63,overcast clouds,2020-12-29 01:02:26
565,Joaima,BR,-16.65,-41.03,69.84,90,14,2.59,few clouds,2020-12-29 01:02:26
566,Codrington,AU,-38.27,141.97,65.61,66,79,10.8,broken clouds,2020-12-29 01:02:26
567,Albanel,CA,48.88,-72.45,26.6,92,100,6.93,snow,2020-12-29 01:02:26
568,Zaoyang,CN,32.13,112.75,37.51,75,95,22.77,light rain,2020-12-29 01:02:27
569,Igarka,RU,67.47,86.58,-29.94,80,5,8.05,clear sky,2020-12-29 01:02:27
570,Shaturtorf,RU,55.57,39.42,8.91,95,74,7.05,broken clouds,2020-12-29 01:02:27
571,San Juan Del Sur,NI,11.25,-85.87,79.16,73,15,14.99,few clouds,2020-12-29 01:02:27
572,Palasa,IN,18.77,84.42,62.94,67,0,3.89,clear sky,2020-12-29 01:02:27
573,Vila Velha,BR,-20.33,-40.29,77.0,83,75,4.7,broken clouds,2020-12-29 01:00:26
574,Gweru,ZW,-19.45,29.82,64.0,97,82,6.15,broken clouds,2020-12-29 01:02:28
575,Pitimbu,BR,-7.47,-34.81,77.0,78,40,6.93,scattered clouds,2020-12-29 01:02:28
576,Kirovskiy,RU,45.09,133.51,-6.72,87,10,1.86,clear sky,2020-12-29 01:02:28
577,Sassandra,CI,4.95,-6.08,77.67,90,0,5.08,clear sky,2020-12-29 01:02:28
578,Maracaibo,VE,10.63,-71.64,79.39,75,61,9.86,broken clouds,2020-12-29 01:02:28
579,Along,IN,28.17,94.77,46.94,61,28,1.54,scattered clouds,2020-12-29 01:02:29
580,Porto Novo,BJ,6.5,2.6,80.6,88,20,6.93,few clouds,2020-12-29 01:02:29
581,Oskemen,KZ,49.96,82.61,-14.8,75,40,4.47,fog,2020-12-29 01:02:29
582,Moa,CU,20.66,-74.94,74.12,82,26,11.18,scattered clouds,2020-12-29 01:02:29
583,Coari,BR,-4.08,-63.14,74.64,96,100,1.59,moderate rain,2020-12-29 01:02:29
584,Mesker-Yurt,RU,43.25,45.91,32.0,92,90,2.24,fog,2020-12-29 01:02:29
585,Shahr-E Kord,IR,32.33,50.86,21.2,100,0,0.63,clear sky,2020-12-29 01:02:30
586,Cayenne,GF,4.93,-52.33,77.0,88,85,1.12,overcast clouds,2020-12-29 01:00:07
587,Palamos,ES,41.85,3.13,48.99,25,97,12.33,overcast clouds,2020-12-29 01:02:30
588,Bath,GB,51.38,-2.36,34.0,96,29,3.87,scattered clouds,2020-12-29 01:02:30
589,Santiago Del Estero,AR,-27.8,-64.26,86.23,53,94,9.22,overcast clouds,2020-12-29 01:02:30
590,Wajima,JP,37.4,136.9,41.0,86,75,2.24,broken clouds,2020-12-29 01:02:31
591,Nakamura,JP,32.98,132.93,58.5,62,100,1.25,overcast clouds,2020-12-29 01:02:31
592,Yerbogachen,RU,61.28,108.01,-21.35,85,74,8.93,broken clouds,2020-12-29 01:02:31
593,Planaltina,BR,-15.45,-47.61,73.4,73,40,6.93,scattered clouds,2020-12-29 01:00:24
594,Morgan City,US,29.7,-91.21,64.4,72,90,6.93,overcast clouds,2020-12-29 00:59:04
595,Narok,KE,-1.08,35.86,53.85,79,0,1.61,clear sky,2020-12-29 01:02:32
596,Srivardhan,IN,18.03,73.02,69.8,56,0,4.23,clear sky,2020-12-29 00:59:09
597,Camopi,GF,3.17,-52.32,73.72,88,100,3.24,overcast clouds,2020-12-29 01:01:38
598,Beinamar,TD,8.67,15.38,68.83,28,75,3.87,broken clouds,2020-12-29 01:02:33
599,Yatou,CN,37.15,122.38,26.51,96,100,27.85,light snow,2020-12-29 01:02:33
600,Mumford,GH,5.26,-0.76,80.01,83,50,10.33,scattered clouds,2020-12-29 01:02:33
601,Narasannapeta,IN,18.42,84.05,62.6,79,0,5.64,clear sky,2020-12-29 01:02:33
602,Pochutla,MX,15.74,-96.47,75.2,73,20,2.93,few clouds,2020-12-29 01:02:33
603,Camocim,BR,-2.9,-40.84,80.42,71,68,15.93,broken clouds,2020-12-29 01:02:34
604,Darovskoy,RU,58.77,47.96,-9.4,89,0,2.64,clear sky,2020-12-29 01:02:34
605,Kenora,CA,49.82,-94.43,-5.8,83,75,5.82,broken clouds,2020-12-29 01:00:51
606,Rio Gallegos,AR,-51.62,-69.22,55.4,47,40,13.87,scattered clouds,2020-12-29 01:01:32
607,Kondrovo,RU,54.81,35.93,17.6,85,100,13.42,overcast clouds,2020-12-29 01:02:34
608,Vangaindrano,MG,-23.35,47.6,73.54,93,100,2.77,overcast clouds,2020-12-29 01:02:34
609,Ngunguru,NZ,-35.62,174.5,75.0,38,0,11.99,clear sky,2020-12-29 01:02:35
610,Karratha,AU,-20.74,116.85,87.01,60,6,5.7,clear sky,2020-12-29 01:02:35
611,Coruripe,BR,-10.13,-36.18,75.81,77,0,9.4,clear sky,2020-12-29 01:02:35
612,Sabang,ID,5.89,95.32,81.61,76,88,10.6,overcast clouds,2020-12-29 01:02:35
613,Weston,US,26.1,-80.4,71.6,60,75,11.41,broken clouds,2020-12-29 01:01:11
614,Marzuq,YE,14.4,46.47,55.36,38,0,2.95,clear sky,2020-12-29 01:02:36
615,Zhigansk,RU,66.77,123.37,-6.09,88,100,20.54,overcast clouds,2020-12-29 01:02:36
616,Srednekolymsk,RU,67.45,153.68,-34.76,80,60,3.67,broken clouds,2020-12-29 01:02:36
617,Mabaruma,GY,8.2,-59.78,73.94,91,100,2.06,overcast clouds,2020-12-29 01:02:36
618,Finnsnes,NO,69.23,17.98,23.0,85,88,13.87,overcast clouds,2020-12-29 01:02:36
619,Tilichiki,RU,60.47,166.1,-0.29,93,96,10.92,overcast clouds,2020-12-29 01:02:37
620,Yenagoa,NG,4.92,6.26,77.14,88,92,3.67,overcast clouds,2020-12-29 01:02:37
621,Minsk,BY,53.9,27.57,32.0,96,90,13.42,light rain,2020-12-29 01:01:55
622,Santa Maria,BR,-29.68,-53.81,78.8,69,0,18.34,clear sky,2020-12-29 00:57:59
623,Folldal,NO,62.13,10.0,24.6,95,100,2.57,light snow,2020-12-29 01:02:37
624,Pangkalanbuun,ID,-2.68,111.62,82.89,73,41,3.87,scattered clouds,2020-12-29 01:02:37
625,Ketchikan,US,55.34,-131.65,37.4,86,90,9.17,overcast clouds,2020-12-29 01:02:38
626,La Ronge,CA,55.1,-105.28,14.0,85,100,3.36,overcast clouds,2020-12-29 01:02:38
627,Jiuquan,CN,39.74,98.52,3.76,86,50,2.13,scattered clouds,2020-12-29 01:02:38
628,Ajdabiya,LY,30.76,20.23,55.69,54,0,8.05,clear sky,2020-12-29 01:02:38
629,Zaragoza,ES,41.66,-0.88,48.0,61,20,18.34,few clouds,2020-12-29 01:02:33
630,Ludvika,SE,60.15,15.19,34.0,95,100,10.29,overcast clouds,2020-12-29 01:02:38
631,Fairbanks,US,64.84,-147.72,15.8,85,75,3.36,broken clouds,2020-12-29 01:02:39
632,Waipawa,NZ,-41.41,175.52,60.8,67,100,14.99,overcast clouds,2020-12-29 01:02:39
633,Harper,LR,4.38,-7.72,78.98,85,39,7.7,scattered clouds,2020-12-29 01:02:39
634,Ubala,CO,4.75,-72.54,79.92,62,64,4.09,broken clouds,2020-12-29 01:02:39
635,Jawhar,SO,2.78,45.5,75.58,80,31,9.53,scattered clouds,2020-12-29 01:02:39
636,Saint-Francois,FR,46.42,3.91,42.8,70,40,12.75,scattered clouds,2020-12-29 01:02:40
637,Kimbe,PG,-5.55,150.14,84.78,73,89,4.5,moderate rain,2020-12-29 01:02:40
638,Dongying,CN,37.46,118.49,25.16,84,100,18.19,overcast clouds,2020-12-29 01:02:40
639,Dalhousie,IN,32.53,75.98,28.76,93,70,9.06,broken clouds,2020-12-29 01:02:40
640,Mandera,KE,3.94,41.87,78.24,66,0,9.06,clear sky,2020-12-29 01:02:40
641,Ozinki,RU,51.18,49.68,2.25,93,0,7.07,clear sky,2020-12-29 01:02:41
642,Chicama,PE,-7.84,-79.15,71.31,74,0,5.88,clear sky,2020-12-29 01:02:41
643,Hualmay,PE,-11.1,-77.61,71.11,78,61,8.61,broken clouds,2020-12-29 01:02:41
644,Trairi,BR,-3.28,-39.27,80.08,75,32,12.77,scattered clouds,2020-12-29 01:02:41
645,Brownwood,US,31.71,-98.99,53.6,76,90,5.82,overcast clouds,2020-12-29 01:02:41
646,Sao Gabriel Da Cachoeira,BR,-0.13,-67.09,74.3,95,100,2.68,moderate rain,2020-12-29 01:02:41
647,Roebourne,AU,-20.78,117.13,87.01,60,63,5.41,broken clouds,2020-12-29 01:02:42
648,Tateyama,JP,34.98,139.87,57.99,71,75,2.24,broken clouds,2020-12-29 01:02:06
649,Gorontalo,ID,0.54,123.06,83.57,73,100,1.1,overcast clouds,2020-12-29 01:02:42
650,Samarai,PG,-10.62,150.67,87.13,68,100,12.55,overcast clouds,2020-12-29 01:02:42
651,Antalaha,MG,-14.9,50.28,76.06,88,100,4.72,overcast clouds,2020-12-29 01:02:42
652,Bethlehem,BR,-1.46,-48.5,78.8,83,20,4.7,few clouds,2020-12-29 01:02:43
653,Urumqi,CN,43.8,87.6,-2.2,77,75,2.24,light snow,2020-12-29 01:02:12
654,Zaozerne,UA,45.16,33.28,49.91,72,79,9.26,broken clouds,2020-12-29 01:02:43
655,Amapa,BR,1.0,-52.0,73.11,96,100,2.24,overcast clouds,2020-12-29 01:02:43
656,Buraydah,SA,26.33,43.98,51.8,93,75,5.82,broken clouds,2020-12-29 01:02:43
657,Daltenganj,IN,24.03,84.07,53.46,66,0,1.92,clear sky,2020-12-29 01:02:43
658,Tayga,RU,56.06,85.62,-22.0,67,0,8.95,clear sky,2020-12-29 01:02:44
659,Ponferrada,ES,42.55,-6.6,39.99,99,100,8.05,overcast clouds,2020-12-29 01:02:44
660,Akdepe,TM,42.06,59.38,23.0,85,0,6.93,clear sky,2020-12-29 01:02:44
661,Sicamous,CA,50.83,-118.99,32.0,93,96,0.98,overcast clouds,2020-12-29 01:02:45
662,Los Llanos De Aridane,ES,28.66,-17.92,66.2,72,75,8.05,broken clouds,2020-12-29 01:02:45
663,Severodvinsk,RU,64.56,39.83,-0.4,84,75,4.47,broken clouds,2020-12-29 01:02:45
664,Oriximina,BR,-1.77,-55.87,76.75,88,31,3.24,scattered clouds,2020-12-29 01:02:45
665,Altamira,BR,-3.2,-52.21,74.05,89,90,2.3,overcast clouds,2020-12-29 01:02:45
666,Araouane,ML,18.9,-3.53,69.93,23,43,7.05,scattered clouds,2020-12-29 01:02:46
667,Camacha,PT,33.08,-16.33,59.0,67,75,6.93,broken clouds,2020-12-29 01:02:46
668,Xicotencatl,MX,23.02,-98.88,73.99,47,11,10.0,few clouds,2020-12-29 01:02:46
669,Geraldton,AU,-28.77,114.6,96.8,14,0,27.51,clear sky,2020-12-29 01:02:46
670,Ishigaki,JP,24.34,124.16,69.8,100,75,12.75,broken clouds,2020-12-29 01:02:46
671,Bafq,IR,31.61,55.41,43.23,58,46,3.27,scattered clouds,2020-12-29 01:02:46
672,Deputatskiy,RU,69.3,139.9,-25.56,88,11,3.15,few clouds,2020-12-29 01:02:47
673,Cabedelo,BR,-6.98,-34.83,77.0,78,40,6.93,scattered clouds,2020-12-29 01:00:09
674,Saint-Andre-Avellin,CA,45.72,-75.07,32.0,63,75,16.11,broken clouds,2020-12-29 01:02:47
675,Lima Duarte,BR,-21.84,-43.79,66.79,94,100,0.85,moderate rain,2020-12-29 01:02:47
676,Vanavara,RU,60.34,102.28,-34.96,82,6,4.9,clear sky,2020-12-29 01:02:47
677,Nyurba,RU,63.28,118.33,-1.89,91,100,10.94,light snow,2020-12-29 01:02:47
678,Sapatgram,IN,26.33,90.11,60.55,73,45,4.9,scattered clouds,2020-12-29 01:02:48
679,Rusne,LT,55.3,21.38,41.0,80,0,11.18,clear sky,2020-12-29 01:02:48
680,Bundaberg,AU,-24.85,152.35,84.0,65,75,14.99,light rain,2020-12-29 01:02:48
681,Khorixas,NA,-20.37,14.97,68.99,47,100,5.32,overcast clouds,2020-12-29 01:02:48
682,Inongo,CD,-1.95,18.27,73.65,78,100,3.31,overcast clouds,2020-12-29 01:01:41
683,Apatou,GF,5.16,-54.35,74.07,96,75,3.67,broken clouds,2020-12-29 01:02:48
684,Carauari,BR,-4.88,-66.9,71.19,93,100,1.14,overcast clouds,2020-12-29 01:02:49
685,Tahoua,NE,14.89,5.27,68.0,18,0,6.93,clear sky,2020-12-29 01:02:49
686,Windhoek,NA,-22.56,17.08,66.99,76,100,1.3,light rain,2020-12-29 01:02:49
687,Luderitz,NA,-26.65,15.16,59.0,82,61,13.87,broken clouds,2020-12-29 01:02:49
688,Tessalit,ML,20.2,1.01,59.07,30,0,5.46,clear sky,2020-12-29 01:02:49
689,Ust-Tsilma,RU,65.44,52.15,-20.11,85,0,1.03,clear sky,2020-12-29 01:02:50
690,Tarauaca,BR,-8.16,-70.77,73.02,95,100,1.83,overcast clouds,2020-12-29 01:02:50
691,Garden City,US,42.33,-83.33,30.99,63,40,8.05,scattered clouds,2020-12-29 01:02:50
692,Kushiro,JP,42.98,144.37,24.8,58,20,2.24,few clouds,2020-12-29 01:02:50
693,Sume,BR,-7.67,-36.88,70.75,73,3,13.33,clear sky,2020-12-29 00:58:05
694,Kamenka,RU,51.32,42.77,8.6,95,64,8.72,broken clouds,2020-12-29 01:02:51
695,Jiangkou,CN,25.49,119.2,62.6,72,75,4.47,broken clouds,2020-12-29 01:02:51
696,Kaduy,RU,59.2,37.15,8.11,95,97,8.97,overcast clouds,2020-12-29 01:02:51
697,Krasnoselkup,RU,65.7,82.47,-24.34,81,100,18.16,overcast clouds,2020-12-29 01:02:51
698,Hervey Bay,AU,-25.3,152.85,84.99,65,100,4.0,overcast clouds,2020-12-29 01:02:51
699,Roma,US,43.21,-75.46,37.4,59,90,11.41,overcast clouds,2020-12-29 01:02:52
700,Pondicherry,IN,11.93,79.83,71.96,85,7,11.21,clear sky,2020-12-29 01:02:52
701,Weyburn,CA,49.67,-103.85,8.6,84,13,13.87,few clouds,2020-12-29 01:02:52
